City_ID,City,Lat,Lng,Max Temp,Humidity,Cloudiness,Wind Speed,Country,Date
0,Port Blair,11.6667,92.75,82.4,84,90,11.36,IN,2021-08-08 17:45:06
1,Rio Gallegos,-51.6226,-69.2181,48.25,46,0,28.77,AR,2021-08-08 17:44:45
2,Cape Town,-33.9258,18.4232,58.1,87,75,3.0,ZA,2021-08-08 17:42:48
3,Butaritari,3.0707,172.7902,82.6,65,16,11.72,KI,2021-08-08 17:45:07
4,Victoria,22.2855,114.1577,84.33,93,99,9.46,HK,2021-08-08 17:41:38
5,Bluff,-46.6,168.3333,35.8,63,69,14.97,NZ,2021-08-08 17:45:07
6,Olinda,-8.0089,-34.8553,80.33,69,75,17.27,BR,2021-08-08 17:45:08
7,Hithadhoo,-0.6,73.0833,82.45,72,97,5.7,MV,2021-08-08 17:45:08
8,Isangel,-19.55,169.2667,69.19,75,89,11.56,VU,2021-08-08 17:45:09
9,Ushuaia,-54.8,-68.3,42.46,61,75,9.22,AR,2021-08-08 17:45:09
10,Westport,41.1415,-73.3579,81.05,83,90,1.01,US,2021-08-08 17:45:09
11,Atuona,-9.8,-139.0333,77.27,80,82,19.35,PF,2021-08-08 17:45:10
12,Punta Arenas,-53.15,-70.9167,42.91,75,75,19.57,CL,2021-08-08 17:45:10
13,Asau,46.4333,26.4,74.32,65,13,1.99,RO,2021-08-08 17:45:10
14,Mahebourg,-20.4081,57.7,69.26,100,75,6.91,MU,2021-08-08 17:45:11
15,Mayo,38.8876,-76.5119,91.08,66,1,5.99,US,2021-08-08 17:45:11
16,Rovnoye,50.7765,46.0509,77.94,35,100,6.58,RU,2021-08-08 17:45:12
17,Visby,57.6409,18.296,68.05,82,20,11.5,SE,2021-08-08 17:45:12
18,Tual,-5.6667,132.75,80.2,79,100,19.22,ID,2021-08-08 17:45:12
19,Rikitea,-23.1203,-134.9692,74.3,75,32,11.3,PF,2021-08-08 17:43:30
20,Tromso,69.6496,18.957,70.45,40,0,5.75,NO,2021-08-08 17:45:13
21,Ribeira Grande,38.5167,-28.7,77.4,69,75,13.8,PT,2021-08-08 17:45:13
22,Aykhal,66.0,111.5,53.98,82,52,4.43,RU,2021-08-08 17:45:14
23,Ponta Do Sol,32.6667,-17.1,75.83,76,64,3.06,PT,2021-08-08 17:45:14
24,Vaini,-21.2,-175.2,62.76,94,20,2.3,TO,2021-08-08 17:45:15
25,Qaanaaq,77.484,-69.3632,39.72,69,36,3.2,GL,2021-08-08 17:45:15
26,Homer,59.6425,-151.5483,57.09,80,90,9.22,US,2021-08-08 17:45:15
27,Touros,-5.1989,-35.4608,83.3,69,52,18.75,BR,2021-08-08 17:45:16
28,Port Macquarie,-31.4333,152.9167,51.76,66,97,2.06,AU,2021-08-08 17:45:16
29,Grand Gaube,-20.0064,57.6608,69.39,89,90,3.0,MU,2021-08-08 17:45:16
30,Kodiak,57.79,-152.4072,54.91,94,90,8.05,US,2021-08-08 17:45:17
31,Broome,42.2506,-75.833,85.8,59,1,1.99,US,2021-08-08 17:45:17
32,Bathsheba,13.2167,-59.5167,88.41,66,20,25.32,BB,2021-08-08 17:45:17
33,Richards Bay,-28.783,32.0377,68.43,66,2,12.5,ZA,2021-08-08 17:45:18
34,Jamestown,42.097,-79.2353,83.17,66,75,1.99,US,2021-08-08 17:41:40
35,Williams Lake,52.1415,-122.1445,58.57,69,75,3.0,CA,2021-08-08 17:45:18
36,Aswan,24.0934,32.907,105.1,17,0,13.8,EG,2021-08-08 17:45:19
37,New Norfolk,-42.7826,147.0587,42.93,82,14,2.75,AU,2021-08-08 17:45:19
38,Avarua,-21.2078,-159.775,69.85,83,75,4.61,CK,2021-08-08 17:43:12
39,Bethel,41.3712,-73.414,82.42,63,1,3.44,US,2021-08-08 17:42:29
40,Cherskiy,68.75,161.3,50.47,58,29,1.39,RU,2021-08-08 17:45:20
41,Half Moon Bay,37.4636,-122.4286,80.91,76,90,1.99,US,2021-08-08 17:45:12
42,Busselton,-33.65,115.3333,55.04,80,48,23.15,AU,2021-08-08 17:45:20
43,Albany,42.6001,-73.9662,86.14,63,83,4.65,US,2021-08-08 17:42:29
44,Dikson,73.5069,80.5464,47.26,76,2,6.11,RU,2021-08-08 17:45:21
45,Mangaldan,16.0667,120.4,79.2,86,100,3.27,PH,2021-08-08 17:45:21
46,Hami,42.8,93.45,83.64,14,38,7.14,CN,2021-08-08 17:45:22
47,Barrow,71.2906,-156.7887,37.42,92,90,9.22,US,2021-08-08 17:45:22
48,Port Lincoln,-34.7333,135.8667,55.13,59,68,11.63,AU,2021-08-08 17:45:22
49,Labuhan,-6.8844,112.2051,78.51,87,26,8.48,ID,2021-08-08 17:45:23
50,Hofn,64.2539,-15.2082,66.22,55,20,3.44,IS,2021-08-08 17:45:23
51,San Andres,12.5847,-81.7006,86.02,74,75,17.27,CO,2021-08-08 17:45:24
52,Chokurdakh,70.6333,147.9167,51.51,62,81,7.78,RU,2021-08-08 17:45:24
53,Yumbe,3.4651,31.2469,65.82,95,53,5.03,UG,2021-08-08 17:45:24
54,Hobart,-42.8794,147.3294,43.27,86,11,3.0,AU,2021-08-08 17:45:02
55,Thompson,55.7435,-97.8558,64.56,94,90,4.61,CA,2021-08-08 17:42:59
56,Huilong,31.8111,121.655,78.98,80,25,3.83,CN,2021-08-08 17:45:25
57,Jasper,37.2001,-94.3502,85.35,78,90,4.0,US,2021-08-08 17:45:25
58,Horizontina,-27.6258,-54.3078,85.01,29,1,4.74,BR,2021-08-08 17:45:26
59,Viedma,-40.8135,-62.9967,55.0,33,65,14.5,AR,2021-08-08 17:45:26
60,Solnechnyy,50.7214,136.6319,48.85,99,100,4.05,RU,2021-08-08 17:45:26
61,Kapaa,22.0752,-159.319,79.12,75,75,18.41,US,2021-08-08 17:45:27
62,Gamba,-2.65,10.0,73.36,79,75,5.99,GA,2021-08-08 17:45:09
63,Matay,28.419,30.7792,94.8,18,0,12.03,EG,2021-08-08 17:45:27
64,Pisco,-13.7,-76.2167,64.02,77,90,5.75,PE,2021-08-08 17:45:28
65,Tiksi,71.6872,128.8694,44.76,88,9,5.48,RU,2021-08-08 17:45:28
66,Saint Anthony,45.0205,-93.218,79.56,80,90,5.75,US,2021-08-08 17:45:13
67,Bredasdorp,-34.5322,20.0403,60.28,55,100,18.41,ZA,2021-08-08 17:44:36
68,Marietta,33.9526,-84.5499,89.49,62,40,3.44,US,2021-08-08 17:43:55
69,Mecca,21.4267,39.8261,94.37,32,3,7.87,SA,2021-08-08 17:45:29
70,Klaksvik,62.2266,-6.589,54.52,92,88,9.22,FO,2021-08-08 17:45:29
71,Norman Wells,65.282,-126.8329,50.04,71,75,10.36,CA,2021-08-08 17:43:29
72,Port Alfred,-33.5906,26.891,64.02,59,68,16.06,ZA,2021-08-08 17:43:24
73,Nioki,-2.7167,17.6833,85.1,33,90,1.95,CD,2021-08-08 17:45:30
74,Hatta,24.1167,79.6,76.87,94,100,5.88,IN,2021-08-08 17:45:30
75,Tessalit,20.1986,1.0114,97.79,24,57,8.16,ML,2021-08-08 17:45:31
76,Mataura,-46.1927,168.8643,35.47,98,97,3.78,NZ,2021-08-08 17:45:31
77,Nelson Bay,-32.7167,152.15,60.01,80,99,10.63,AU,2021-08-08 17:44:49
78,Vung Tau,10.346,107.0843,81.48,83,79,12.97,VN,2021-08-08 17:45:32
79,Iracoubo,5.4802,-53.2011,82.44,79,62,10.6,GF,2021-08-08 17:45:32
80,Envira,-7.3,-70.2167,99.32,23,1,1.3,BR,2021-08-08 17:45:33
81,Wanning,18.8003,110.3967,82.56,85,99,10.42,CN,2021-08-08 17:45:33
82,Pangody,65.85,74.4859,60.17,80,0,12.44,RU,2021-08-08 17:45:33
83,Oga,46.4631,10.347,63.28,84,72,1.34,IT,2021-08-08 17:45:34
84,Saskylakh,71.9167,114.0833,60.75,56,97,9.1,RU,2021-08-08 17:45:34
85,Torbay,47.6666,-52.7314,76.75,82,75,18.41,CA,2021-08-08 17:45:34
86,Amazar,53.858,120.875,55.02,99,100,10.33,RU,2021-08-08 17:45:35
87,Rengasdengklok,-6.1592,107.2981,76.87,89,4,6.51,ID,2021-08-08 17:45:35
88,Dingle,10.9995,122.6711,76.44,90,97,3.51,PH,2021-08-08 17:45:35
89,Sao Filipe,14.8961,-24.4956,79.65,79,17,9.22,CV,2021-08-08 17:45:36
90,Coquimbo,-29.9533,-71.3436,58.73,67,75,9.22,CL,2021-08-08 17:43:33
91,Bairiki,1.3292,172.9752,80.6,74,20,2.3,KI,2021-08-08 17:45:36
92,Griffith,41.5284,-87.4237,89.89,64,1,1.99,US,2021-08-08 17:45:37
93,New Boston,42.9762,-71.694,85.59,68,100,1.99,US,2021-08-08 17:45:37
94,Tasiilaq,65.6145,-37.6368,46.56,96,100,18.48,GL,2021-08-08 17:45:37
95,Amboasary,-25.0333,46.3833,67.84,87,0,5.3,MG,2021-08-08 17:45:38
96,Lagoa,39.05,-27.9833,71.94,86,61,18.16,PT,2021-08-08 17:45:19
97,Agirish,61.9247,63.0231,59.65,95,91,6.08,RU,2021-08-08 17:45:38
98,Pevek,69.7008,170.3133,36.97,83,84,7.11,RU,2021-08-08 17:45:39
99,Tandil,-37.3217,-59.1332,49.3,50,100,5.99,AR,2021-08-08 17:45:39
100,Karratha,-20.7377,116.8463,67.8,65,2,3.29,AU,2021-08-08 17:45:40
101,Dong Hoi,17.4833,106.6,84.54,74,70,7.87,VN,2021-08-08 17:45:40
102,La Romana,18.4273,-68.9728,91.76,70,75,9.22,DO,2021-08-08 17:45:26
103,Campbell River,50.0163,-125.2446,64.78,70,40,12.66,CA,2021-08-08 17:45:12
104,Airai,-8.9266,125.4092,54.63,87,35,1.5,TL,2021-08-08 17:43:29
105,Gat,31.61,34.7642,83.8,100,0,5.82,IL,2021-08-08 17:45:41
106,Lorengau,-2.0226,147.2712,80.74,79,64,9.44,PG,2021-08-08 17:45:41
107,Yellowknife,62.456,-114.3525,52.32,58,75,8.05,CA,2021-08-08 17:44:46
108,Nargana,9.4428,-78.5906,82.33,76,88,4.68,PA,2021-08-08 17:45:42
109,Bondoukou,8.0333,-2.8,77.49,79,92,4.23,CI,2021-08-08 17:45:42
110,Kushmurun,52.4503,64.6311,64.31,63,90,10.38,KZ,2021-08-08 17:45:42
111,Nikolskoye,59.7035,30.7861,69.69,96,99,4.38,RU,2021-08-08 17:40:48
112,Panaba,21.2833,-88.2667,98.71,31,37,8.34,MX,2021-08-08 17:45:43
113,Shubarkuduk,49.1447,56.4872,76.32,34,15,5.79,KZ,2021-08-08 17:45:43
114,Lodwar,3.1191,35.5973,89.31,29,54,3.71,KE,2021-08-08 17:45:44
115,Kreuzlingen,47.65,9.1833,65.43,93,89,3.94,CH,2021-08-08 17:45:44
116,Ugoofaaru,5.6667,73.0,82.22,71,100,15.05,MV,2021-08-08 17:45:44
117,Bengkulu,-3.8004,102.2655,76.71,91,45,4.59,ID,2021-08-08 17:45:45
118,Cabo San Lucas,22.8909,-109.9124,92.61,69,100,1.99,MX,2021-08-08 17:43:40
119,Kandrian,-6.2167,149.55,76.39,91,99,7.56,PG,2021-08-08 17:45:45
120,San Vicente,-26.6167,-54.1333,82.4,27,2,5.5,AR,2021-08-08 17:45:46
121,Bilibino,68.0546,166.4372,46.17,52,80,3.4,RU,2021-08-08 17:45:46
122,Necochea,-38.5473,-58.7368,52.03,45,90,8.14,AR,2021-08-08 17:45:46
123,Aloleng,16.1307,119.7824,81.55,84,100,13.62,PH,2021-08-08 17:45:47
124,Hermanus,-34.4187,19.2345,60.8,76,100,23.47,ZA,2021-08-08 17:45:47
125,Alice Springs,-23.7,133.8833,40.55,45,0,4.61,AU,2021-08-08 17:44:43
126,Port Elizabeth,-33.918,25.5701,61.11,77,0,25.32,ZA,2021-08-08 17:45:48
127,San Patricio,28.017,-97.5169,93.92,50,8,19.55,US,2021-08-08 17:45:48
128,Iqaluit,63.7506,-68.5145,42.53,93,90,5.75,CA,2021-08-08 17:45:48
129,Kumluca,36.3703,30.2869,85.82,49,0,6.62,TR,2021-08-08 17:45:49
130,Coihaique,-45.5752,-72.0662,48.15,53,0,3.44,CL,2021-08-08 17:45:49
131,Beloha,-25.1667,45.05,63.91,82,0,6.11,MG,2021-08-08 17:45:50
132,Galesong,-5.3166,119.3661,73.42,78,36,3.8,ID,2021-08-08 17:45:50
133,Los Llanos De Aridane,28.6585,-17.9182,70.12,91,75,5.75,ES,2021-08-08 17:45:50
134,Honningsvag,70.9821,25.9704,71.13,64,12,13.15,NO,2021-08-08 17:45:51
135,Khandagayty,50.7333,92.05,56.95,76,67,3.31,RU,2021-08-08 17:45:51
136,Silvan,38.1419,41.0081,80.89,28,19,9.98,TR,2021-08-08 17:45:52
137,Farafangana,-22.8167,47.8333,67.26,81,0,4.61,MG,2021-08-08 17:45:52
138,Altamira,-3.2033,-52.2064,91.49,52,75,6.91,BR,2021-08-08 17:45:52
139,Kailua,21.4022,-157.7394,78.78,69,40,10.36,US,2021-08-08 17:45:53
140,Santa Vitoria Do Palmar,-33.5189,-53.3681,67.14,75,81,6.69,BR,2021-08-08 17:45:53
141,Upernavik,72.7868,-56.1549,41.16,88,91,4.74,GL,2021-08-08 17:43:29
142,Sabzevar,36.2126,57.6819,87.89,15,0,14.97,IR,2021-08-08 17:45:54
143,Gorontalo,0.5412,123.0595,73.76,95,82,2.3,ID,2021-08-08 17:45:54
144,Tazovskiy,67.4667,78.7,56.46,63,5,9.08,RU,2021-08-08 17:45:05
145,Nishihara,26.1842,127.7558,80.65,97,75,11.5,JP,2021-08-08 17:45:55
146,Vredendal,-31.6683,18.5012,59.16,76,85,14.56,ZA,2021-08-08 17:45:55
147,Lesnoy,57.6198,63.0784,60.39,96,55,5.79,RU,2021-08-08 17:45:56
148,El Monte,34.0686,-118.0276,94.12,68,20,4.61,US,2021-08-08 17:45:56
149,Georgiyevka,43.0369,74.7114,77.04,36,0,6.71,KZ,2021-08-08 17:45:56
150,Ilulissat,69.2167,-51.1,44.62,87,90,11.5,GL,2021-08-08 17:45:57
151,Aklavik,68.2191,-135.0107,51.8,76,75,0.0,CA,2021-08-08 17:45:57
152,Tucupita,9.0622,-62.051,87.67,62,95,3.78,VE,2021-08-08 17:45:57
153,Zhigansk,66.7697,123.3711,58.55,42,86,8.68,RU,2021-08-08 17:45:58
154,Clyde River,70.4692,-68.5914,53.83,54,20,17.27,CA,2021-08-08 17:45:58
155,Katsuura,35.1333,140.3,84.31,90,100,19.89,JP,2021-08-08 17:45:58
156,Yerbogachen,61.2767,108.0108,50.97,59,1,1.3,RU,2021-08-08 17:45:59
157,Georgetown,5.4112,100.3354,82.89,85,40,2.3,MY,2021-08-08 17:45:12
158,Tuktoyaktuk,69.4541,-133.0374,46.4,71,90,11.5,CA,2021-08-08 17:45:59
159,Djibo,14.1022,-1.6306,93.83,35,92,6.91,BF,2021-08-08 17:46:00
160,Khatanga,71.9667,102.5,53.74,62,97,14.27,RU,2021-08-08 17:46:00
161,Saint-Philippe,-21.3585,55.7679,69.39,83,29,7.49,RE,2021-08-08 17:46:01
162,Tomohon,1.3346,124.8392,65.34,90,99,2.91,ID,2021-08-08 17:46:01
163,Hervey Bay,-25.2986,152.8535,57.04,80,18,7.52,AU,2021-08-08 17:46:01
164,Saskatoon,52.1168,-106.6345,66.16,58,75,8.99,CA,2021-08-08 17:45:46
165,Provideniya,64.3833,-173.3,44.67,84,100,14.5,RU,2021-08-08 17:44:55
166,Mitsamiouli,-11.3847,43.2844,77.43,64,47,6.51,KM,2021-08-08 17:46:02
167,Nouadhibou,20.931,-17.0347,75.18,73,0,19.57,MR,2021-08-08 17:46:03
168,Careiro Da Varzea,-3.2003,-59.8119,90.21,32,31,4.25,BR,2021-08-08 17:46:03
169,Akyab,20.15,92.9,81.36,86,99,3.78,MM,2021-08-08 17:46:03
170,Hilo,19.7297,-155.09,73.8,83,90,4.61,US,2021-08-08 17:46:04
171,Tura,25.5198,90.2201,75.63,97,89,6.38,IN,2021-08-08 17:46:04
172,Mantua,45.1667,10.7833,87.04,43,90,5.01,IT,2021-08-08 17:46:05
173,Spencer,43.1414,-95.1444,77.4,69,1,12.66,US,2021-08-08 17:46:05
174,Misratah,32.3754,15.0925,82.96,68,0,14.12,LY,2021-08-08 17:46:05
175,Faanui,-16.4833,-151.75,78.98,74,36,13.62,PF,2021-08-08 17:46:06
176,Fortuna,40.5982,-124.1573,60.66,96,90,8.05,US,2021-08-08 17:46:06
177,Severo-Kurilsk,50.6789,156.125,52.61,83,32,10.65,RU,2021-08-08 17:46:07
178,Nanortalik,60.1432,-45.2371,44.2,85,40,14.03,GL,2021-08-08 17:46:07
179,Longyearbyen,78.2186,15.6401,44.44,81,20,11.5,SJ,2021-08-08 17:45:18
180,Castro,-24.7911,-50.0119,66.09,60,38,4.63,BR,2021-08-08 17:44:45
181,Axim,4.8699,-2.2405,77.38,83,61,9.64,GH,2021-08-08 17:46:08
182,Anadyr,64.75,177.4833,43.3,75,0,15.66,RU,2021-08-08 17:46:08
183,Selikhino,50.3672,137.4996,51.39,93,100,7.76,RU,2021-08-08 17:46:09
184,Otavi,-19.65,17.3333,68.85,14,2,3.11,NA,2021-08-08 17:46:09
185,Sterling,39.0062,-77.4286,90.14,50,20,1.01,US,2021-08-08 17:41:12
186,Kununurra,-15.7667,128.7333,55.38,82,2,0.0,AU,2021-08-08 17:42:33
187,East London,-33.0153,27.9116,81.54,12,0,6.91,ZA,2021-08-08 17:46:10
188,Golden,39.7555,-105.2211,90.25,26,0,1.99,US,2021-08-08 17:45:14
189,Husavik,66.0449,-17.3389,57.11,87,40,7.54,IS,2021-08-08 17:45:22
190,Vila Franca Do Campo,37.7167,-25.4333,72.01,76,52,9.26,PT,2021-08-08 17:46:10
191,Marzuq,14.4,46.4667,88.18,25,78,12.01,YE,2021-08-08 17:46:11
192,Zonguldak,41.25,31.8333,65.03,92,95,1.3,TR,2021-08-08 17:46:11
193,Carnarvon,-24.8667,113.6333,64.47,80,0,6.91,AU,2021-08-08 17:46:12
194,Szydlowiec,51.2282,20.8611,68.2,68,26,3.38,PL,2021-08-08 17:46:12
195,Japura,-0.3167,102.35,76.19,90,86,1.23,ID,2021-08-08 17:46:12
196,Petropavl,54.8753,69.1628,61.61,83,100,11.77,KZ,2021-08-08 17:46:13
197,Pimentel,-6.8367,-79.9342,73.69,74,0,4.0,PE,2021-08-08 17:46:13
198,Weligama,5.9667,80.4167,76.86,91,69,9.15,LK,2021-08-08 17:44:50
199,Kaitangata,-46.2817,169.8464,36.07,90,84,8.93,NZ,2021-08-08 17:43:38
200,Mgandu,-5.95,34.1333,73.51,36,76,7.7,TZ,2021-08-08 17:46:14
201,Alugan,12.2188,125.4808,77.88,88,100,5.46,PH,2021-08-08 17:46:14
202,Benjamin Constant,-4.3831,-70.0311,93.33,66,75,4.61,BR,2021-08-08 17:46:14
203,Ratzeburg,53.7,10.7667,68.05,72,0,1.01,DE,2021-08-08 17:46:15
204,Mahbubabad,17.6167,80.0167,83.64,65,97,4.83,IN,2021-08-08 17:46:15
205,Ahipara,-35.1667,173.1667,49.64,67,99,21.07,NZ,2021-08-08 17:46:16
206,Gushikawa,26.3544,127.8686,80.6,97,75,12.66,JP,2021-08-08 17:46:16
207,Brigantine,39.4101,-74.3646,75.29,88,90,12.66,US,2021-08-08 17:46:16
208,Tucuman,-26.8241,-65.2226,73.4,31,68,11.5,AR,2021-08-08 17:46:17
209,Buala,-8.145,159.5921,77.7,80,92,1.36,SB,2021-08-08 17:46:17
210,Sorland,67.667,12.6934,69.87,72,98,18.3,NO,2021-08-08 17:46:17
211,Edea,3.8,10.1333,76.78,99,100,3.18,CM,2021-08-08 17:46:18
212,Marienburg,54.0359,19.0266,71.85,67,34,6.42,PL,2021-08-08 17:46:18
213,Yar-Sale,66.8333,70.8333,54.39,73,90,16.58,RU,2021-08-08 17:46:19
214,Puerto Ayora,-0.7393,-90.3518,76.96,81,37,7.0,EC,2021-08-08 17:43:41
215,Lata,40.1629,-8.3327,82.04,47,0,10.6,PT,2021-08-08 17:46:19
216,Samarai,-10.6167,150.6667,77.76,79,99,15.86,PG,2021-08-08 17:46:19
217,Ayan,56.45,138.1667,52.99,61,48,6.17,RU,2021-08-08 17:46:20
218,Sakakah,29.9697,40.2064,99.97,13,0,3.44,SA,2021-08-08 17:46:20
219,Lenger,42.183,69.8839,81.84,19,0,6.31,KZ,2021-08-08 17:46:21
220,Verkhnyaya Inta,65.9811,60.3094,47.75,95,100,6.76,RU,2021-08-08 17:46:21
221,Faya,18.3851,42.4509,75.31,67,70,4.47,SA,2021-08-08 17:44:52
222,Sumoto,34.35,134.9,82.4,89,99,33.38,JP,2021-08-08 17:46:21
223,Alberdi,-32.8899,-60.6906,71.69,88,90,16.11,AR,2021-08-08 17:46:22
224,Hasaki,35.7333,140.8333,79.09,92,100,11.81,JP,2021-08-08 17:46:22
225,Adrar,20.5022,-10.0711,102.38,12,6,16.53,MR,2021-08-08 17:46:23
226,Ixtapa,20.7,-105.2,87.22,74,82,3.0,MX,2021-08-08 17:46:23
227,La Union,-5.4,-80.75,81.55,43,6,10.33,PE,2021-08-08 17:46:23
228,Kokopo,-4.352,152.2633,75.45,86,99,4.56,PG,2021-08-08 17:46:24
229,Lebu,-37.6167,-73.65,50.32,65,36,10.71,CL,2021-08-08 17:46:24
230,Vangaindrano,-23.35,47.6,65.5,90,1,5.46,MG,2021-08-08 17:46:25
231,Verkhnevilyuysk,63.4453,120.3167,66.6,73,100,3.27,RU,2021-08-08 17:44:04
232,Starkville,33.4504,-88.8184,89.8,56,40,5.75,US,2021-08-08 17:46:25
233,Crixas,-14.5489,-49.9692,90.55,20,0,4.9,BR,2021-08-08 17:46:26
234,Ilebo,-4.3167,20.5833,81.77,37,43,2.51,CD,2021-08-08 17:46:26
235,Mandalgovi,45.7625,106.2708,53.98,70,0,16.44,MN,2021-08-08 17:46:26
236,Narsaq,60.9167,-46.05,52.02,62,14,12.44,GL,2021-08-08 17:46:27
237,Salamiyah,35.0113,37.0532,77.38,71,0,16.91,SY,2021-08-08 17:46:27
238,Mount Gambier,-37.8333,140.7667,46.31,87,60,6.91,AU,2021-08-08 17:45:04
239,Fare,-16.7,-151.0167,78.46,77,30,12.37,PF,2021-08-08 17:46:28
240,Fuling,29.7022,107.3919,77.54,95,100,0.54,CN,2021-08-08 17:46:28
241,Mwinilunga,-11.7358,24.4293,66.69,27,18,5.66,ZM,2021-08-08 17:46:29
242,Inyonga,-6.7167,32.0667,75.04,33,53,4.05,TZ,2021-08-08 17:46:29
243,Opuwo,-18.0607,13.84,70.03,16,5,4.97,NA,2021-08-08 17:46:29
244,Fray Bentos,-33.1325,-58.2956,72.9,62,80,1.83,UY,2021-08-08 17:46:30
245,Izazi,-7.2,35.7333,74.23,39,32,7.85,TZ,2021-08-08 17:46:30
246,Taltal,-25.4,-70.4833,59.41,63,9,7.81,CL,2021-08-08 17:46:31
247,Ariquemes,-9.9133,-63.0408,100.42,17,0,3.15,BR,2021-08-08 17:46:31
248,Asfi,32.2994,-9.2372,70.54,72,0,20.49,MA,2021-08-08 17:46:31
249,San Rafael,-34.6177,-68.3301,46.24,60,100,11.81,AR,2021-08-08 17:46:32
250,Avera,33.194,-82.5271,90.72,43,12,0.87,US,2021-08-08 17:46:32
251,Balkhash,46.844,74.9804,77.54,40,50,15.66,KZ,2021-08-08 17:44:59
252,San Cristobal,7.7669,-72.225,77.18,82,74,1.39,VE,2021-08-08 17:46:32
253,Dasoguz,41.8363,59.9666,87.75,33,0,6.91,TM,2021-08-08 17:46:33
254,Port Augusta,-32.5,137.7667,42.94,68,0,3.67,AU,2021-08-08 17:46:33
255,Nabire,-3.3667,135.4833,74.55,94,100,4.03,ID,2021-08-08 17:46:34
256,Dale,38.1689,-86.99,91.89,65,20,8.05,US,2021-08-08 17:46:34
257,Ulaanbaatar,47.9077,106.8832,55.53,76,40,6.71,MN,2021-08-08 17:42:28
258,Ballina,-28.8667,153.5667,58.96,72,75,8.05,AU,2021-08-08 17:46:34
259,Pontianak,-0.0333,109.3333,75.18,100,40,4.61,ID,2021-08-08 17:46:35
260,Muros,42.7762,-9.0603,71.15,68,70,10.89,ES,2021-08-08 17:45:08
261,Portland,45.5234,-122.6762,70.61,61,40,1.01,US,2021-08-08 17:44:06
262,Codrington,-38.2667,141.9667,45.46,75,88,9.44,AU,2021-08-08 17:46:35
263,Vijayawada,16.5167,80.6167,85.41,70,74,4.7,IN,2021-08-08 17:46:36
264,Sucua,-2.4667,-78.1667,83.14,57,75,4.61,EC,2021-08-08 17:46:36
265,Balykshi,47.0667,51.8667,89.6,15,0,13.42,KZ,2021-08-08 17:46:36
266,Vardo,70.3705,31.1107,64.6,67,0,13.8,NO,2021-08-08 17:46:37
267,Pachino,36.7186,15.0907,89.6,76,0,10.87,IT,2021-08-08 17:46:37
268,Pavullo Nel Frignano,44.3315,10.835,82.04,44,95,14.97,IT,2021-08-08 17:46:38
269,At-Bashi,41.1702,75.8106,57.94,55,45,1.99,KG,2021-08-08 17:46:38
270,Angoche,-16.2325,39.9086,72.23,66,10,10.13,MZ,2021-08-08 17:46:38
271,Korgen,66.0771,13.8153,64.53,82,100,5.88,NO,2021-08-08 17:46:39
272,Lalmohan,22.3384,90.7419,82.8,84,71,11.79,BD,2021-08-08 17:46:39
273,Arraial Do Cabo,-22.9661,-42.0278,76.96,60,20,16.11,BR,2021-08-08 17:46:39
274,Mehran,33.1222,46.1646,101.68,12,0,6.55,IR,2021-08-08 17:46:40
275,Sharjah,25.3573,55.4033,102.54,35,0,4.61,AE,2021-08-08 17:44:05
276,Geraldton,-28.7667,114.6,63.01,94,75,11.5,AU,2021-08-08 17:46:40
277,Anshun,26.25,105.9333,68.88,93,100,2.73,CN,2021-08-08 17:46:41
278,Malazgirt,39.1427,42.5401,73.54,27,66,2.42,TR,2021-08-08 17:46:41
279,Cidreira,-30.1811,-50.2056,65.79,74,3,8.72,BR,2021-08-08 17:46:41
280,Sabang,5.8933,95.3214,82.9,78,99,12.06,ID,2021-08-08 17:46:42
281,Payo,-3.7508,103.6372,74.97,84,58,2.1,ID,2021-08-08 17:46:42
282,Mareeba,-17.0,145.4333,65.12,92,24,2.53,AU,2021-08-08 17:46:42
283,Bac Lieu,9.285,105.7244,80.65,87,74,10.4,VN,2021-08-08 17:46:43
284,Carutapera,-1.195,-46.02,83.89,69,22,6.98,BR,2021-08-08 17:46:43
285,Elizabeth City,36.2946,-76.2511,81.01,83,90,3.44,US,2021-08-08 17:46:44
286,Vestmannaeyjar,63.4427,-20.2734,59.99,72,0,13.8,IS,2021-08-08 17:46:44
287,Bud,39.447,-86.1758,87.19,67,83,9.13,US,2021-08-08 17:46:45
288,Grindavik,63.8424,-22.4338,65.55,67,0,16.11,IS,2021-08-08 17:44:39
289,Qasigiannguit,68.8193,-51.1922,44.85,97,100,9.01,GL,2021-08-08 17:46:45
290,Poro,10.6292,124.4087,78.66,72,100,9.13,PH,2021-08-08 17:46:46
291,Kavieng,-2.5744,150.7967,80.76,76,91,10.92,PG,2021-08-08 17:46:46
292,Komsomolskiy,40.4272,71.7189,84.92,32,0,6.91,UZ,2021-08-08 17:45:14
293,Arman,59.7,150.1667,54.66,70,62,6.17,RU,2021-08-08 17:46:47
294,Champerico,14.3,-91.9167,94.77,76,91,5.73,GT,2021-08-08 17:46:47
295,Cachoeirinha,-29.9511,-51.0939,85.69,55,0,4.61,BR,2021-08-08 17:46:48
296,Esperance,-33.8667,121.9,58.84,80,9,14.05,AU,2021-08-08 17:46:48
297,Kantang,7.4054,99.5156,78.35,90,94,3.69,TH,2021-08-08 17:46:49
298,Glenwood Springs,39.5505,-107.3248,82.13,33,1,3.44,US,2021-08-08 17:46:49
299,Jalu,29.0331,21.5482,94.3,16,0,10.49,LY,2021-08-08 17:46:49
300,Tilichiki,60.4667,166.1,44.46,79,100,7.43,RU,2021-08-08 17:46:50
301,Mar Del Plata,-38.0023,-57.5575,50.02,66,0,13.8,AR,2021-08-08 17:46:50
302,Macia,-25.0269,33.0989,63.19,55,0,6.46,MZ,2021-08-08 17:46:51
303,Tsiroanomandidy,-18.7667,46.0333,63.16,39,6,3.15,MG,2021-08-08 17:46:51
304,Caravelas,-17.7125,-39.2481,74.66,63,13,9.89,BR,2021-08-08 17:46:51
305,Sitka,57.0531,-135.33,60.69,72,90,5.75,US,2021-08-08 17:46:52
306,Liptovsky Hradok,49.0396,19.7234,72.23,85,83,2.48,SK,2021-08-08 17:46:52
307,Okitipupa,6.5047,4.7839,73.56,94,99,3.98,NG,2021-08-08 17:46:53
308,Kathmandu,27.7167,85.3167,71.82,100,75,2.3,NP,2021-08-08 17:46:03
309,Burns Lake,54.2331,-125.7533,54.82,54,7,3.98,CA,2021-08-08 17:46:53
310,Fairbanks,64.8378,-147.7164,59.59,83,90,8.05,US,2021-08-08 17:46:53
311,Tigil,57.8,158.6667,42.91,89,40,3.62,RU,2021-08-08 17:46:54
312,San Rafael Del Sur,11.8485,-86.4384,86.97,57,59,12.39,NI,2021-08-08 17:46:54
313,Mahajanga,-15.7167,46.3167,75.22,78,20,5.75,MG,2021-08-08 17:46:55
314,Evansville,37.9748,-87.5558,92.17,58,20,3.0,US,2021-08-08 17:46:32
315,Noumea,-22.2763,166.4572,60.78,65,79,10.31,NC,2021-08-08 17:46:55
316,Parker,32.7668,-97.8003,92.98,57,14,3.0,US,2021-08-08 17:46:56
317,Mangrol,21.1167,70.1167,80.89,81,100,9.31,IN,2021-08-08 17:46:56
318,Mandera,3.9366,41.867,86.31,35,89,11.77,KE,2021-08-08 17:46:56
319,Pangnirtung,66.1451,-65.7125,48.2,71,90,17.27,CA,2021-08-08 17:46:57
320,Orleans,30.0335,-89.9501,93.99,68,1,8.05,US,2021-08-08 17:46:57
321,Manokwari,-0.8667,134.0833,77.61,78,99,3.51,ID,2021-08-08 17:46:57
322,Ashland,40.8167,-82.2665,86.49,63,68,5.12,US,2021-08-08 17:46:58
323,Luangwa,-15.6167,30.4167,68.2,36,0,1.63,ZM,2021-08-08 17:46:58
324,Ancud,-41.8697,-73.8203,54.43,61,3,3.87,CL,2021-08-08 17:46:58
325,Sao Francisco,-15.9486,-44.8644,84.38,26,0,7.52,BR,2021-08-08 17:46:59
326,Whyalla,-33.0333,137.5833,42.69,81,0,4.61,AU,2021-08-08 17:46:59
327,Songjianghe,42.1859,127.479,57.74,81,0,1.95,CN,2021-08-08 17:47:00
328,Una,20.8167,71.0333,79.86,82,87,7.2,IN,2021-08-08 17:47:00
329,San Jeronimo,-11.9472,-75.2829,65.62,22,0,2.98,PE,2021-08-08 17:47:00
330,Batavia,41.85,-88.3126,90.03,64,1,3.0,US,2021-08-08 17:47:01
331,Flinders,-34.5833,150.8552,51.21,81,100,1.01,AU,2021-08-08 17:47:01
332,Sobolevo,54.4299,31.8996,65.19,67,100,3.49,RU,2021-08-08 17:47:01
333,Mao,39.8885,4.2658,77.56,65,0,12.66,ES,2021-08-08 17:47:02
334,Chuy,-33.6971,-53.4616,64.92,80,80,8.21,UY,2021-08-08 17:47:02
335,Padang,-0.9492,100.3543,78.31,87,81,3.71,ID,2021-08-08 17:44:07
336,Minab,27.1467,57.0801,90.9,55,1,3.76,IR,2021-08-08 17:47:03
337,Halifax,44.6453,-63.5724,76.68,78,100,1.99,CA,2021-08-08 17:47:03
338,Sao Jose Da Coroa Grande,-8.8978,-35.1478,75.96,78,64,11.99,BR,2021-08-08 17:47:04
339,Innisfail,-17.5333,146.0333,66.69,88,83,5.19,AU,2021-08-08 17:47:04
340,Miri,4.4148,114.0089,80.74,89,40,4.61,MY,2021-08-08 17:47:04
341,Iskateley,67.6803,53.1512,47.8,90,0,7.16,RU,2021-08-08 17:47:05
342,Thinadhoo,0.5333,72.9333,81.18,76,100,2.93,MV,2021-08-08 17:44:31
343,Samarinda,-0.5,117.15,74.12,98,81,0.29,ID,2021-08-08 17:47:05
344,Taksimo,56.3444,114.8794,59.54,98,100,2.75,RU,2021-08-08 17:42:41
345,Hay River,60.8156,-115.7999,46.38,93,75,9.22,CA,2021-08-08 17:47:06
346,Presidencia Roque Saenz Pena,-26.7852,-60.4388,94.91,19,49,15.37,AR,2021-08-08 17:47:06
347,Chumikan,54.7183,135.315,50.11,85,100,8.79,RU,2021-08-08 17:47:06
348,Hirara,24.8,125.2833,81.43,86,74,11.77,JP,2021-08-08 17:47:07
349,Entebbe,0.0644,32.4469,73.72,78,20,3.44,UG,2021-08-08 17:47:07
350,Dhidhdhoo,6.8833,73.1,82.18,69,100,19.73,MV,2021-08-08 17:47:08
351,Cap Malheureux,-19.9842,57.6142,69.48,89,86,3.0,MU,2021-08-08 17:47:08
352,Irbeyskoye,55.6428,95.4522,58.62,82,11,2.26,RU,2021-08-08 17:47:09
353,Cabra,37.4725,-4.4421,94.44,23,0,3.0,ES,2021-08-08 17:47:09
354,Bandundu,-3.3167,17.3667,85.28,31,59,0.63,CD,2021-08-08 17:47:10
355,Gerash,27.6652,54.1371,96.94,24,8,4.94,IR,2021-08-08 17:47:10
356,Pacific Grove,36.6177,-121.9166,75.16,85,40,3.0,US,2021-08-08 17:47:10
357,Talaya,61.3833,152.75,49.87,83,100,4.61,RU,2021-08-08 17:47:11
358,Sijunjung,-0.6876,100.9537,72.88,97,91,1.9,ID,2021-08-08 17:47:11
359,Araouane,18.9048,-3.5265,105.57,13,48,13.56,ML,2021-08-08 17:47:12
360,Northam,51.0333,-4.2167,65.82,86,28,15.93,GB,2021-08-08 17:47:12
361,San Quintin,30.4833,-115.95,72.95,66,13,8.79,MX,2021-08-08 17:47:13
362,Nyurba,63.2842,118.3319,61.29,98,93,2.04,RU,2021-08-08 17:47:13
363,Adre,13.4667,22.2,69.21,87,100,3.76,TD,2021-08-08 17:47:13
364,Natal,-5.795,-35.2094,84.42,58,40,24.16,BR,2021-08-08 17:44:21
365,Qiongshan,20.0058,110.3542,82.38,94,0,0.0,CN,2021-08-08 17:47:14
366,Ginda,30.6945,78.4932,64.85,90,25,2.73,IN,2021-08-08 17:47:14
367,Naze,28.3667,129.4833,78.08,87,42,15.39,JP,2021-08-08 17:47:15
368,Tsabong,-26.0217,22.401,69.75,15,0,10.47,BW,2021-08-08 17:47:15
369,Kalevala,65.2,31.1667,56.52,82,99,10.11,RU,2021-08-08 17:47:15
370,Skjervoy,70.0311,20.9714,73.4,61,96,15.1,NO,2021-08-08 17:47:16
371,Marsh Harbour,26.5412,-77.0636,84.13,70,14,8.41,BS,2021-08-08 17:47:16
372,Jacareacanga,-6.2222,-57.7528,100.76,20,6,3.44,BR,2021-08-08 17:47:17
373,Letnyaya Stavka,45.4306,43.4472,85.08,36,21,7.27,RU,2021-08-08 17:47:17
374,Mariental,-24.6333,17.9667,69.13,17,5,12.71,NA,2021-08-08 17:47:17
375,Irkutsk,52.2978,104.2964,52.57,100,90,0.0,RU,2021-08-08 17:47:18
376,Saint George,37.1041,-113.5841,99.07,18,1,1.01,US,2021-08-08 17:45:44
377,Orimattila,60.8049,25.7296,66.02,77,99,3.96,FI,2021-08-08 17:47:18
378,Along,28.1667,94.7667,76.96,100,93,0.6,IN,2021-08-08 17:47:19
379,Coruripe,-10.1256,-36.1756,76.89,63,71,10.0,BR,2021-08-08 17:47:19
380,Kadoshkino,54.0257,44.4191,72.61,48,99,5.73,RU,2021-08-08 17:47:19
381,Corinto,37.9407,22.9573,86.02,51,0,1.97,GR,2021-08-08 17:47:20
382,Yen Bai,21.7,104.8667,80.47,92,97,1.92,VN,2021-08-08 17:47:20
383,Evensk,61.95,159.2333,51.67,68,34,10.31,RU,2021-08-08 17:47:21
384,Pilar,-9.5972,-35.9567,78.73,65,78,8.55,BR,2021-08-08 17:47:21
385,Havre-Saint-Pierre,50.2334,-63.5986,66.56,45,90,11.5,CA,2021-08-08 17:47:21
386,Sur,22.5667,59.5289,90.28,56,0,11.48,OM,2021-08-08 17:47:22
387,Conde,-7.2597,-34.9075,81.86,65,75,18.41,BR,2021-08-08 17:47:22
388,Sesimbra,38.4445,-9.1015,76.66,55,0,19.82,PT,2021-08-08 17:47:23
389,Perpignan,42.75,2.75,76.42,42,90,9.22,FR,2021-08-08 17:47:23
390,Norman,35.2226,-97.4395,87.87,89,1,19.57,US,2021-08-08 17:43:47
391,Nador,35.174,-2.9287,86.07,39,0,8.05,MA,2021-08-08 17:47:23
392,Sangar,63.9242,127.4739,59.38,40,1,9.1,RU,2021-08-08 17:47:24
393,Alofi,-19.0595,-169.9187,73.29,83,99,9.22,NU,2021-08-08 17:47:24
394,Kalia,23.0396,89.6328,80.85,92,88,7.78,BD,2021-08-08 17:47:24
395,Nuqui,5.7125,-77.2708,81.09,78,81,8.88,CO,2021-08-08 17:47:25
396,Kasempa,-13.4584,25.8338,65.77,27,0,5.08,ZM,2021-08-08 17:47:25
397,Nome,64.5011,-165.4064,53.67,67,90,18.41,US,2021-08-08 17:47:25
398,Union,40.6334,-74.2663,85.05,69,90,8.05,US,2021-08-08 17:43:18
399,Novokruchininskiy,51.7833,113.7667,53.33,93,61,1.57,RU,2021-08-08 17:47:26
400,Kokkola,63.8385,23.1307,64.56,80,75,6.91,FI,2021-08-08 17:47:26
401,Turukhansk,65.8167,87.9833,58.05,68,7,7.72,RU,2021-08-08 17:47:27
402,Bone,51.9669,12.1396,72.28,51,72,14.41,DE,2021-08-08 17:47:27
403,Hamilton,39.1834,-84.5333,90.72,59,40,1.01,US,2021-08-08 17:46:01
404,Mazamari,-11.3258,-74.5308,90.72,34,0,2.17,PE,2021-08-08 17:47:28
405,Kalabo,-14.97,22.6814,69.85,19,1,6.15,ZM,2021-08-08 17:47:28
406,Pangai,-19.8,-174.35,71.71,64,20,0.0,TO,2021-08-08 17:47:28
407,Amontada,-3.3617,-39.8317,94.05,33,21,11.81,BR,2021-08-08 17:47:29
408,Santa Rosa,14.3122,121.1114,81.1,87,93,4.68,PH,2021-08-08 17:44:25
409,Saldanha,-33.0117,17.9442,57.25,79,100,17.13,ZA,2021-08-08 17:47:29
410,Savannakhet,16.566,104.751,79.81,87,92,6.71,LA,2021-08-08 17:47:30
411,Salalah,17.0151,54.0924,78.89,94,90,4.61,OM,2021-08-08 17:47:30
412,Ismailia,30.6043,32.2723,83.41,61,0,11.63,EG,2021-08-08 17:42:42
413,Plouzane,48.3833,-4.6167,62.62,85,75,16.11,FR,2021-08-08 17:47:31
414,Pozoblanco,38.3791,-4.8483,84.78,12,0,8.16,ES,2021-08-08 17:47:31
415,Trani,41.2727,16.4154,97.3,41,6,7.81,IT,2021-08-08 17:47:32
416,Maniitsoq,65.4167,-52.9,41.59,87,98,3.6,GL,2021-08-08 17:47:32
417,Savannah Bight,16.45,-85.85,89.65,79,100,18.97,HN,2021-08-08 17:47:32
418,Comodoro Rivadavia,-45.8667,-67.5,51.66,32,20,9.22,AR,2021-08-08 17:47:33
419,Algeciras,36.1333,-5.4505,91.06,47,0,12.66,ES,2021-08-08 17:47:33
420,Phonhong,18.5007,102.4166,78.4,86,100,1.14,LA,2021-08-08 17:47:33
421,Buraydah,26.326,43.975,100.85,11,73,11.36,SA,2021-08-08 17:45:05
422,Kahului,20.8947,-156.47,75.22,75,40,9.22,US,2021-08-08 17:47:34
423,Goure,13.9835,10.2704,85.01,46,69,5.97,NE,2021-08-08 17:47:34
424,Broken Hill,-31.95,141.4333,42.51,75,0,9.22,AU,2021-08-08 17:47:35
425,Maragheh,37.3917,46.2398,80.87,23,20,11.5,IR,2021-08-08 17:47:35
426,Nuevo Progreso,23.1667,-97.95,90.9,49,10,4.0,MX,2021-08-08 17:47:35
427,Launceston,-41.45,147.1667,47.16,97,90,8.05,AU,2021-08-08 17:47:36
428,Port Keats,-14.25,129.55,64.6,31,0,6.35,AU,2021-08-08 17:47:36
429,Pitimbu,-7.4706,-34.8086,82.99,69,64,16.33,BR,2021-08-08 17:47:36
430,Sao Gabriel,-30.3364,-54.32,79.75,51,0,9.08,BR,2021-08-08 17:47:37
431,Pitsunda,43.1592,40.3378,78.98,79,70,2.48,GE,2021-08-08 17:47:37
432,Osorno,-40.5667,-73.15,50.31,71,75,12.66,CL,2021-08-08 17:47:37
433,Bambous Virieux,-20.3428,57.7575,69.22,100,75,6.91,MU,2021-08-08 17:47:38
434,San Miguelito,9.0333,-79.5,87.67,72,20,5.01,PA,2021-08-08 17:47:38
435,Del Rio,29.3627,-100.8968,91.51,58,1,13.8,US,2021-08-08 17:47:39
436,Vallenar,-28.5708,-70.7581,60.75,39,26,5.44,CL,2021-08-08 17:47:39
437,Kirakira,-10.4544,161.9205,77.07,86,94,5.93,SB,2021-08-08 17:47:40
438,Sakaiminato,35.55,133.2333,78.78,100,90,29.93,JP,2021-08-08 17:47:05
439,Tiznit,29.5833,-9.5,69.37,67,0,8.88,MA,2021-08-08 17:47:40
440,Per,47.6115,17.8063,74.93,68,0,3.44,HU,2021-08-08 17:47:41
441,Nalut,30.3333,10.85,102.16,9,2,10.13,LY,2021-08-08 17:47:41
442,Margate,51.3813,1.3862,66.69,67,88,8.01,GB,2021-08-08 17:47:41
443,Praya,14.9215,-23.5087,84.74,70,40,10.36,CV,2021-08-08 17:47:42
444,Mirnyy,62.5353,113.9611,56.95,85,64,0.96,RU,2021-08-08 17:47:42
445,Amahai,-3.3333,128.9167,75.99,88,100,2.13,ID,2021-08-08 17:47:42
446,Workington,54.6425,-3.5441,64.33,96,87,22.91,GB,2021-08-08 17:47:43
447,Bitung,1.4451,125.1824,74.25,87,100,9.35,ID,2021-08-08 17:47:43
448,Port Moresby,-9.4431,147.1797,76.42,83,40,11.5,PG,2021-08-08 17:47:44
449,Caldas Novas,-17.7417,-48.625,82.33,23,0,6.4,BR,2021-08-08 17:42:47
450,Scottsbluff,41.8666,-103.6672,91.81,29,1,5.01,US,2021-08-08 17:43:36
451,Xuddur,4.1213,43.8894,80.02,47,100,17.81,SO,2021-08-08 17:47:44
452,Omboue,-1.5746,9.2618,74.3,80,72,7.92,GA,2021-08-08 17:47:45
453,Arbuzynka,47.9097,31.3196,69.87,63,0,8.68,UA,2021-08-08 17:47:45
454,Marawi,7.9986,124.2928,66.65,92,100,2.19,PH,2021-08-08 17:47:45
455,Vila,42.0304,-8.1588,67.69,55,26,5.82,PT,2021-08-08 17:47:46
456,Ranghulu,46.65,124.8667,64.17,86,58,10.6,CN,2021-08-08 17:47:46
457,Loralai,30.3705,68.598,83.3,34,40,9.64,PK,2021-08-08 17:47:47
458,Luanda,-8.8368,13.2343,75.2,78,0,6.91,AO,2021-08-08 17:47:47
459,Barra Do Garcas,-15.89,-52.2567,91.98,27,0,6.91,BR,2021-08-08 17:47:47
460,Jiuquan,39.7432,98.5174,72.37,22,1,11.03,CN,2021-08-08 17:47:48
461,Contamana,-7.3333,-75.0167,96.71,27,0,3.02,PE,2021-08-08 17:47:48
462,Sistranda,63.7256,8.834,69.76,70,44,10.38,NO,2021-08-08 17:47:48
463,Luganville,-15.5333,167.1667,74.98,85,100,10.65,VU,2021-08-08 17:47:49
464,Gloversville,43.0528,-74.3438,85.51,68,75,7.0,US,2021-08-08 17:47:49
465,Hokitika,-42.7167,170.9667,35.01,79,40,8.46,NZ,2021-08-08 17:43:07
466,Konstantinovka,49.6167,127.9833,52.48,87,4,6.26,RU,2021-08-08 17:47:50
467,Marsa Matruh,31.3525,27.2453,82.6,61,0,17.27,EG,2021-08-08 17:47:50
468,Passo De Camaragibe,-9.2368,-35.4901,80.15,72,61,8.08,BR,2021-08-08 17:47:51
469,Lavrentiya,65.5833,-171.0,42.8,86,100,13.62,RU,2021-08-08 17:47:51
470,Lapusnicu Mare,44.9131,21.9442,82.65,38,0,5.73,RO,2021-08-08 17:47:51
471,Ishigaki,24.3448,124.1572,81.82,88,82,5.48,JP,2021-08-08 17:47:52
472,Podor,16.6527,-14.9587,96.75,44,75,4.61,MR,2021-08-08 17:47:52
473,Paita,-5.0892,-81.1144,75.76,65,2,14.74,PE,2021-08-08 17:47:52
474,Corsicana,32.0954,-96.4689,93.25,60,40,7.0,US,2021-08-08 17:47:53
475,Riofrio,4.1571,-76.2885,79.05,65,80,1.9,CO,2021-08-08 17:47:53
476,Coahuayana,18.7333,-103.6833,91.13,53,78,3.65,MX,2021-08-08 17:47:53
477,Tautira,-17.7333,-149.15,75.22,77,83,8.68,PF,2021-08-08 17:47:54
478,Rabo De Peixe,37.8,-25.5833,71.11,78,75,13.8,PT,2021-08-08 17:47:54
479,Okha,53.5739,142.9478,50.94,80,50,1.68,RU,2021-08-08 17:47:55
480,Cambrai,50.1667,3.4167,65.77,71,89,11.16,FR,2021-08-08 17:47:55
481,Muroto,33.2833,134.15,82.87,86,100,36.95,JP,2021-08-08 17:47:55
482,Birin,26.8865,88.0718,65.89,93,84,2.77,NP,2021-08-08 17:47:56
483,Pachperwa,27.5167,82.65,80.42,90,100,4.09,IN,2021-08-08 17:47:56
484,Henties Bay,-22.116,14.2845,57.85,93,13,14.5,NA,2021-08-08 17:47:56
485,Beipiao,41.7919,120.7792,70.56,77,99,1.3,CN,2021-08-08 17:47:57
486,Matara,5.9485,80.5353,76.69,91,69,9.28,LK,2021-08-08 17:47:57
487,Reyes,-14.3167,-67.3833,94.71,25,5,5.55,BO,2021-08-08 17:47:58
488,Tanggu,39.0211,117.6469,82.36,74,100,5.93,CN,2021-08-08 17:47:58
489,Goba,7.0167,39.9833,52.7,86,57,3.76,ET,2021-08-08 17:47:58
490,Eyrarbakki,63.863,-21.1481,65.21,72,79,8.03,IS,2021-08-08 17:47:59
491,Tamandare,-8.7597,-35.1047,76.01,78,71,11.3,BR,2021-08-08 17:47:59
492,Esna,25.2934,32.554,100.42,11,0,11.9,EG,2021-08-08 17:47:59
493,Taunggyi,20.7833,97.0333,64.17,96,99,3.33,MM,2021-08-08 17:48:00
494,Hinton,53.4001,-117.5857,65.1,61,99,4.83,CA,2021-08-08 17:48:00
495,Diffa,13.3154,12.6113,86.49,51,50,7.23,NE,2021-08-08 17:48:01
496,Alta Floresta,-9.8756,-56.0861,94.82,26,0,6.91,BR,2021-08-08 17:48:01
497,Laramie,41.3114,-105.5911,79.79,25,1,1.01,US,2021-08-08 17:48:01
498,Ngunguru,-35.6167,174.5,43.16,86,100,14.52,NZ,2021-08-08 17:48:02
499,Warmbad,-28.45,18.7333,56.37,60,21,14.34,NA,2021-08-08 17:48:02
500,Ulladulla,-35.35,150.4667,47.3,67,92,4.12,AU,2021-08-08 17:45:03
501,Lompoc,34.6391,-120.4579,81.1,90,90,0.0,US,2021-08-08 17:48:03
502,Scarborough,54.2797,-0.4044,65.77,78,73,5.99,GB,2021-08-08 17:48:03
503,Saint Marys,30.7305,-81.5465,95.05,76,8,5.19,US,2021-08-08 17:48:03
504,Marsabit,2.3284,37.9899,71.98,45,50,10.98,KE,2021-08-08 17:48:04
505,Kudahuvadhoo,2.6708,72.8944,82.89,75,100,12.39,MV,2021-08-08 17:48:04
506,Dalby,-27.1833,151.2667,47.1,93,1,10.2,AU,2021-08-08 17:48:04
507,Bonavista,48.6499,-53.1147,64.11,91,99,20.38,CA,2021-08-08 17:48:05
508,Palmer,42.1584,-72.3287,85.62,62,75,0.0,US,2021-08-08 17:48:05
509,Atambua,-9.1061,124.8925,67.8,85,27,4.09,ID,2021-08-08 17:48:06
510,Guanare,9.0418,-69.7421,91.42,58,98,12.66,VE,2021-08-08 17:48:06
511,Edd,13.9297,41.6925,89.8,70,97,7.11,ER,2021-08-08 17:48:06
512,Ewa Beach,21.3156,-158.0072,78.75,70,1,4.61,US,2021-08-08 17:48:07
513,Puno,-15.8333,-70.0333,58.57,32,11,5.77,PE,2021-08-08 17:48:07
514,Manavalakurichi,8.1333,77.3,78.89,86,80,15.43,IN,2021-08-08 17:48:07
515,Jaisalmer,26.9147,70.9181,92.89,39,0,18.45,IN,2021-08-08 17:48:08
516,Pondicherry,11.93,79.83,84.22,76,77,16.33,IN,2021-08-08 17:48:08
517,Antofagasta,-23.65,-70.4,61.88,65,38,12.19,CL,2021-08-08 17:48:09
518,Shimoda,34.6667,138.95,82.51,90,100,15.99,JP,2021-08-08 17:45:21
519,Villa Carlos Paz,-31.4241,-64.4978,63.05,44,0,15.01,AR,2021-08-08 17:48:09
520,Port Hedland,-20.3167,118.5667,57.25,82,3,8.05,AU,2021-08-08 17:48:10
521,Gravdal,68.1214,13.5031,69.69,46,0,16.11,NO,2021-08-08 17:48:10
522,Oksfjord,70.2396,22.3479,73.47,56,71,8.88,NO,2021-08-08 17:48:10
523,Kainantu,-6.2887,145.8655,59.74,98,100,1.66,PG,2021-08-08 17:48:11
524,Hoquiam,46.9809,-123.8893,68.45,84,90,6.91,US,2021-08-08 17:48:11
525,Walvis Bay,-22.9575,14.5053,59.95,67,6,8.05,NA,2021-08-08 17:48:12
526,Qaqortoq,60.7167,-46.0333,52.3,75,8,18.57,GL,2021-08-08 17:48:12
527,Leningradskiy,69.3833,178.4167,37.67,80,65,15.79,RU,2021-08-08 17:48:12
528,Bandiagara,14.3501,-3.6104,88.84,43,53,3.53,ML,2021-08-08 17:48:13
529,Paralimni,35.0375,33.9833,87.66,88,0,5.99,CY,2021-08-08 17:48:13
530,Kruisfontein,-34.0033,24.7314,58.89,84,90,7.38,ZA,2021-08-08 17:48:13
531,Canaries,28.0,-15.5,71.56,53,20,24.16,ES,2021-08-08 17:48:14
532,Boden,65.8252,21.6886,60.8,98,100,9.91,SE,2021-08-08 17:48:14
533,Saint-Augustin,51.226,-58.6502,67.59,38,70,3.58,CA,2021-08-08 17:48:14
534,Madison,34.7334,-86.5667,89.1,63,20,1.99,US,2021-08-08 17:46:15
535,Johnstown,40.3267,-78.922,87.48,70,90,3.44,US,2021-08-08 17:48:09
536,Balud,10.1476,123.6953,78.76,76,100,5.01,PH,2021-08-08 17:48:15
537,Cockburn Town,21.4612,-71.1419,85.96,66,40,10.36,TC,2021-08-08 17:43:42
538,Chimoio,-19.1164,33.4833,62.46,63,0,4.61,MZ,2021-08-08 17:48:16
539,Dzhebariki-Khaya,62.2167,135.8,54.64,63,8,1.28,RU,2021-08-08 17:48:16
540,Horsham,51.064,-0.3272,66.29,77,20,12.66,GB,2021-08-08 17:48:16
541,Beira,-19.8436,34.8389,68.09,77,0,0.0,MZ,2021-08-08 17:48:17
542,Salinopolis,-0.6136,-47.3561,83.43,67,18,12.8,BR,2021-08-08 17:48:17
543,Beringovskiy,63.05,179.3167,43.7,89,100,22.55,RU,2021-08-08 17:48:17
544,Rockport,28.0206,-97.0544,93.22,73,20,3.0,US,2021-08-08 17:48:18
545,Mackay,-21.15,149.2,63.05,94,75,8.05,AU,2021-08-08 17:44:29
546,Eureka,40.8021,-124.1637,60.93,90,95,1.99,US,2021-08-08 17:48:18
547,Seydi,39.4816,62.9137,89.73,15,0,12.1,TM,2021-08-08 17:48:19
548,Sinnamary,5.3833,-52.95,83.82,73,65,11.83,GF,2021-08-08 17:48:19
549,Urumqi,43.801,87.6005,79.75,30,0,6.71,CN,2021-08-08 17:48:17
550,Mercedes,-34.6515,-59.4307,43.52,75,80,19.06,AR,2021-08-08 17:48:20
551,Porto Novo,6.4965,2.6036,78.62,86,97,9.8,BJ,2021-08-08 17:48:20
552,Batagay-Alyta,67.8006,130.4114,56.91,46,51,1.21,RU,2021-08-08 17:48:20
553,Bowmore,34.9421,-79.3031,90.81,56,1,1.99,US,2021-08-08 17:48:21
554,Talnakh,69.4865,88.3972,61.07,51,0,3.02,RU,2021-08-08 17:48:21
555,Horasan,40.0458,42.1728,70.48,48,89,5.3,TR,2021-08-08 17:48:21
556,Ambovombe,-25.1667,46.0833,65.25,82,0,6.33,MG,2021-08-08 17:48:22
557,Vestmanna,62.1564,-7.1664,52.72,94,20,8.05,FO,2021-08-08 17:48:22
558,Butembo,0.15,29.2833,58.87,96,67,1.83,CD,2021-08-08 17:48:22
559,Vaitape,-16.5167,-151.75,78.96,74,37,13.51,PF,2021-08-08 17:48:23
560,Imbituba,-28.24,-48.6703,75.09,67,0,13.76,BR,2021-08-08 17:48:23
561,Rawson,-43.3002,-65.1023,52.03,37,0,7.25,AR,2021-08-08 17:48:24
562,Bosobolo,4.1833,19.9,74.07,80,67,2.44,CD,2021-08-08 17:48:24
563,Hovd,48.0056,91.6419,60.87,60,94,2.42,MN,2021-08-08 17:48:24
564,Bandarbeyla,9.4942,50.8122,76.12,84,69,32.03,SO,2021-08-08 17:48:25
565,Muli,2.9167,73.5667,83.68,73,99,13.18,MV,2021-08-08 17:48:25
566,Quelimane,-17.8786,36.8883,71.55,73,0,5.75,MZ,2021-08-08 17:48:26
567,Juneau,58.3019,-134.4197,59.22,90,75,4.61,US,2021-08-08 17:48:26
568,Vaasa,63.096,21.6158,64.42,77,20,6.91,FI,2021-08-08 17:43:52
569,Tomatlan,19.9333,-105.25,90.27,57,57,2.82,MX,2021-08-08 17:48:26
570,Montepuez,-13.1256,38.9997,70.92,57,53,7.25,MZ,2021-08-08 17:48:27
571,Bulungu,-4.55,18.6,84.27,29,51,2.39,CD,2021-08-08 17:48:27
572,Guerrero Negro,27.9769,-114.0611,77.76,62,6,10.31,MX,2021-08-08 17:48:28
573,Soe,-9.8607,124.284,62.42,88,37,3.42,ID,2021-08-08 17:48:28
574,Vanino,49.0869,140.2543,52.21,89,100,5.23,RU,2021-08-08 17:48:28
575,Pierre,44.3683,-100.351,85.12,48,1,3.44,US,2021-08-08 17:48:29
576,Yulara,-25.2406,130.9889,40.84,45,0,2.3,AU,2021-08-08 17:48:29
577,Hambantota,6.1241,81.1185,78.75,83,57,16.49,LK,2021-08-08 17:48:29
578,Tuatapere,-46.1333,167.6833,35.82,84,99,6.76,NZ,2021-08-08 17:44:08
579,Moyale,3.5167,39.0584,71.31,50,62,7.09,KE,2021-08-08 17:48:30
580,Barreirinhas,-2.7469,-42.8264,88.38,48,2,10.63,BR,2021-08-08 17:48:30
581,Cooma,-36.2333,149.1333,33.57,93,90,4.61,AU,2021-08-08 17:48:31
582,Berlevag,70.8578,29.0864,71.6,65,9,11.23,NO,2021-08-08 17:48:31
583,Saint-Joseph,-21.3667,55.6167,68.38,81,17,5.57,RE,2021-08-08 17:48:32
584,Douglas,41.3,-96.167,83.61,72,1,1.99,US,2021-08-08 17:48:32
585,Battle Creek,42.3212,-85.1797,86.72,69,1,12.66,US,2021-08-08 17:47:02
586,Pontes E Lacerda,-15.2261,-59.3353,98.15,18,3,6.89,BR,2021-08-08 17:48:33
587,Kashi,39.4547,75.9797,84.25,28,71,0.63,CN,2021-08-08 17:48:33
588,Kigoma,-4.8769,29.6267,75.79,69,0,0.0,TZ,2021-08-08 17:48:27
589,Diamantino,-14.4086,-56.4461,95.72,21,6,7.38,BR,2021-08-08 17:45:31
590,Beihai,21.4833,109.1,84.63,85,97,7.36,CN,2021-08-08 17:48:34
591,Pahrump,36.2083,-115.9839,99.25,10,0,1.01,US,2021-08-08 17:47:26
592,Wangkui,46.8333,126.5,58.21,90,34,6.4,CN,2021-08-08 17:48:34
593,Aktau,43.65,51.2,88.38,24,16,7.34,KZ,2021-08-08 17:48:34
594,Thanh Hoa,19.8,105.7667,84.11,79,98,2.84,VN,2021-08-08 17:48:35
595,Barabinsk,55.3571,78.357,64.2,85,98,6.82,RU,2021-08-08 17:48:35
596,Sarh,9.1429,18.3923,73.31,88,20,0.0,TD,2021-08-08 17:48:36
597,Nantucket,41.2835,-70.0995,84.25,69,90,3.44,US,2021-08-08 17:48:36
598,Shelkovskaya,43.5069,46.3392,85.87,47,76,7.11,RU,2021-08-08 17:48:36
599,Chichimila,20.6167,-88.2167,97.47,33,9,5.48,MX,2021-08-08 17:48:37
600,Amantea,39.1332,16.0746,87.75,55,0,5.66,IT,2021-08-08 17:48:37
601,Haines Junction,60.7522,-137.5108,55.35,71,96,1.14,CA,2021-08-08 17:48:37
602,Saharsa,25.8833,86.6,81.68,86,90,1.03,IN,2021-08-08 17:48:38
603,Hanting,36.7708,119.2108,71.74,72,46,1.88,CN,2021-08-08 17:48:38
604,Dali,25.7,100.1833,65.64,95,100,4.68,CN,2021-08-08 17:48:39
605,Dagana,16.5165,-15.5068,96.78,46,51,19.62,MR,2021-08-08 17:48:39
606,Outjo,-20.1167,16.15,68.02,17,2,7.34,NA,2021-08-08 17:48:39
607,Korla,41.7597,86.1469,81.68,32,99,8.37,CN,2021-08-08 17:48:40
608,Chipinge,-20.1883,32.6236,57.33,54,0,3.74,ZW,2021-08-08 17:48:40
609,Kjollefjord,70.9457,27.3465,71.42,43,0,11.5,NO,2021-08-08 17:48:40
610,Aksu,41.1231,80.2644,78.73,37,26,4.65,CN,2021-08-08 17:48:41
611,Dubrovytsya,51.5744,26.565,70.81,73,73,5.66,UA,2021-08-08 17:48:41
612,Brownsville,25.9018,-97.4975,93.9,58,20,20.71,US,2021-08-08 17:48:42
613,Krasnoselkup,65.7,82.4667,60.69,59,40,8.97,RU,2021-08-08 17:44:15
614,Pochutla,15.7432,-96.4661,89.82,65,69,8.21,MX,2021-08-08 17:48:43
615,Honiara,-9.4333,159.95,75.99,88,98,3.31,SB,2021-08-08 17:48:43
616,Lima,-12.0432,-77.0282,61.14,77,90,9.22,PE,2021-08-08 17:45:15
617,The Valley,18.217,-63.0578,87.66,70,40,18.41,AI,2021-08-08 17:47:20
618,Tuensang,26.2833,94.8333,71.28,99,93,1.74,IN,2021-08-08 17:48:44
619,Kisanga,-7.4362,37.7034,73.4,59,28,4.09,TZ,2021-08-08 17:48:44
620,Bonthe,7.5264,-12.505,80.31,70,93,11.59,SL,2021-08-08 17:48:45
621,Matagami,49.7502,-77.6328,68.11,49,1,12.66,CA,2021-08-08 17:44:05
622,Oranjestad,12.524,-70.027,89.55,58,40,9.22,AW,2021-08-08 17:48:07
623,Les Cayes,18.2,-73.75,87.73,60,58,11.52,HT,2021-08-08 17:48:45
624,Krasnyy Oktyabr,56.1167,38.8833,66.54,86,99,0.85,RU,2021-08-08 17:48:46
625,Belmonte,-15.8631,-38.8828,77.5,65,88,12.57,BR,2021-08-08 17:48:46
626,Bereda,43.2686,-7.5406,70.41,75,46,5.3,ES,2021-08-08 17:48:46
627,Poya,-21.35,165.15,63.03,75,65,9.28,NC,2021-08-08 17:48:47
628,Vols,47.25,11.3333,60.44,88,75,5.75,AT,2021-08-08 17:48:47
629,Shenjiamen,29.9576,122.298,77.85,81,15,4.18,CN,2021-08-08 17:48:47
630,Atar,20.5169,-13.0499,101.37,22,3,10.87,MR,2021-08-08 17:48:48
631,Mehamn,71.0357,27.8492,71.55,43,0,11.5,NO,2021-08-08 17:48:48
632,Lethem,3.3803,-59.7968,83.75,72,72,2.48,GY,2021-08-08 17:48:49
633,Rio Grande,-32.035,-52.0986,86.11,67,6,5.88,BR,2021-08-08 17:48:49
634,Tranas,58.0372,14.9782,63.39,91,98,4.38,SE,2021-08-08 17:48:49
635,Camacha,33.0833,-16.3333,72.36,64,40,12.66,PT,2021-08-08 17:48:50
636,Puerto Del Rosario,28.5004,-13.8627,80.35,50,20,20.71,ES,2021-08-08 17:48:50
637,Dolores,-36.3132,-57.6792,44.01,87,100,13.91,AR,2021-08-08 17:48:51
638,Bambui,-20.0064,-45.9769,72.46,40,45,9.78,BR,2021-08-08 17:48:51
639,Tungor,53.3808,142.9564,49.41,84,52,3.18,RU,2021-08-08 17:48:51
640,Aleksandrovskiy Zavod,50.9237,117.9374,57.54,89,77,1.23,RU,2021-08-08 17:48:52
641,Mulchen,-37.7167,-72.2333,46.26,49,100,2.95,CL,2021-08-08 17:48:52
642,Havelock,34.8791,-76.9013,86.02,70,75,6.91,US,2021-08-08 17:44:35
643,Arroyo,41.6096,-4.7969,81.14,19,0,6.91,ES,2021-08-08 17:48:52
644,Yacuiba,-22.038,-63.6797,89.17,24,1,4.14,BO,2021-08-08 17:48:53
645,Sept-Iles,50.2001,-66.3821,66.72,54,40,10.0,CA,2021-08-08 17:48:53
646,Puerto El Triunfo,13.2833,-88.55,84.36,67,97,5.12,SV,2021-08-08 17:48:54
647,Oranjemund,-28.55,16.4333,58.77,71,88,10.85,NA,2021-08-08 17:48:54
648,Strezhevoy,60.7333,77.5889,66.18,68,78,5.01,RU,2021-08-08 17:48:54
649,Tupsan,9.1992,124.7769,79.68,78,100,6.89,PH,2021-08-08 17:48:55
650,Uglegorskiy,48.2427,41.2531,86.88,55,62,6.62,RU,2021-08-08 17:48:55
651,Tevaitoa,-16.7833,-151.5,78.71,76,36,13.0,PF,2021-08-08 17:48:55
652,Laguna,38.421,-121.4238,95.65,52,1,8.05,US,2021-08-08 17:44:58
653,Takoradi,4.8845,-1.7554,78.01,78,78,11.56,GH,2021-08-08 17:48:56
654,Danielskuil,-28.1887,23.5395,58.5,23,24,9.31,ZA,2021-08-08 17:48:56
655,Ushtobe,45.2514,77.9838,77.5,24,24,8.63,KZ,2021-08-08 17:44:46
656,Constantine,36.365,6.6147,99.81,23,40,9.22,DZ,2021-08-08 17:48:57
657,Serang,-6.1149,106.1502,80.37,87,7,4.0,ID,2021-08-08 17:48:57
658,Nouakchott,18.0858,-15.9785,82.33,76,16,17.2,MR,2021-08-08 17:48:25
659,Atherton,53.5237,-2.4935,64.69,74,70,8.99,GB,2021-08-08 17:48:58
660,Russell,32.3502,-85.1999,89.51,55,40,5.75,US,2021-08-08 17:48:58
661,Namatanai,-3.6667,152.4333,77.47,80,98,6.35,PG,2021-08-08 17:48:59
662,Talcahuano,-36.7167,-73.1167,53.28,54,0,8.05,CL,2021-08-08 17:48:59
663,Acajutla,13.5928,-89.8275,89.94,72,100,6.02,SV,2021-08-08 17:48:59
664,Carupano,10.6678,-63.2585,84.22,71,35,11.88,VE,2021-08-08 17:49:00
665,Somotillo,13.0433,-86.9064,89.74,50,64,4.45,NI,2021-08-08 17:49:00
666,Fuengirola,36.54,-4.6247,87.35,57,0,8.05,ES,2021-08-08 17:49:01
667,Madimba,-10.4,40.3333,74.52,83,20,9.22,TZ,2021-08-08 17:49:01
668,Gornopravdinsk,60.05,69.9,68.23,74,99,2.68,RU,2021-08-08 17:49:01
669,Vao,-22.6667,167.4833,67.48,58,63,18.25,NC,2021-08-08 17:49:02
670,Dudinka,69.4058,86.1778,55.98,72,6,9.62,RU,2021-08-08 17:49:02
671,Alenquer,-1.9417,-54.7383,88.14,36,43,5.28,BR,2021-08-08 17:49:02
672,Bose,45.4612,8.0137,83.16,74,41,4.36,IT,2021-08-08 17:49:03
673,Lingao,19.9103,109.6859,83.25,83,93,6.42,CN,2021-08-08 17:49:03
674,Gravelbourg,49.8834,-106.5512,71.87,37,49,12.44,CA,2021-08-08 17:49:04
675,Balingasay,16.3573,119.8564,81.75,83,100,13.71,PH,2021-08-08 17:49:04
676,Ambalavao,-21.8333,46.9333,53.74,91,0,4.36,MG,2021-08-08 17:49:05
677,Kuching,1.55,110.3333,73.62,100,20,2.3,MY,2021-08-08 17:49:05
678,Trinidad,-14.8333,-64.9,91.38,46,20,10.36,BO,2021-08-08 17:49:05
679,Te Anau,-45.4167,167.7167,31.3,97,84,0.92,NZ,2021-08-08 17:49:06
680,Svetlaya,46.5389,138.3297,58.57,91,100,16.69,RU,2021-08-08 17:49:06
681,Ust-Nera,64.5667,143.2,57.34,63,10,4.65,RU,2021-08-08 17:49:06
682,Burnie,-41.0667,145.9167,46.92,89,93,3.15,AU,2021-08-08 17:49:07
683,Turan,16.0678,108.2208,89.65,79,20,1.14,VN,2021-08-08 17:45:11
684,Minas,-34.3759,-55.2377,54.07,83,99,13.8,UY,2021-08-08 17:45:26
685,Madang,-5.2246,145.7966,74.97,92,99,1.45,PG,2021-08-08 17:49:07
686,Sibolga,1.7427,98.7792,76.8,90,95,3.56,ID,2021-08-08 17:49:08
687,Pokhara,28.2333,83.9833,73.63,87,99,1.74,NP,2021-08-08 17:49:08
688,Kurchum,48.5722,83.6542,70.43,37,64,1.92,KZ,2021-08-08 17:49:09
689,Kavaratti,10.5669,72.642,80.83,80,100,17.96,IN,2021-08-08 17:44:22
690,Nuuk,64.1835,-51.7216,45.21,81,90,10.36,GL,2021-08-08 17:49:09
691,Biankouma,7.7391,-7.6138,75.87,83,87,1.9,CI,2021-08-08 17:49:10
692,Vawkavysk,53.1561,24.4513,63.55,91,64,6.85,BY,2021-08-08 17:49:10
693,Santa Barbara,34.7333,-120.0343,88.14,56,1,6.4,US,2021-08-08 17:49:10
694,Daru,-9.0763,143.2092,75.9,89,99,16.4,PG,2021-08-08 17:49:11
695,Ndele,8.4109,20.6473,70.23,96,54,2.06,CF,2021-08-08 17:49:11
696,Ulaangom,49.9811,92.0667,60.87,66,63,3.11,MN,2021-08-08 17:47:22
697,Magadan,59.5667,150.8,52.5,79,40,3.62,RU,2021-08-08 17:49:11
698,Moussoro,13.6408,16.4901,85.55,56,68,5.21,TD,2021-08-08 17:49:12
699,Yenagoa,4.9247,6.2642,73.89,91,98,8.21,NG,2021-08-08 17:49:12
700,Areosa,41.7178,-8.8571,78.67,72,41,15.77,PT,2021-08-08 17:49:13
701,Teya,60.3778,92.6267,62.13,68,99,3.18,RU,2021-08-08 17:49:13
702,Concarneau,47.875,-3.9225,62.89,90,100,10.49,FR,2021-08-08 17:49:13
